marker-color,marker-size,name,icon,longitude,latitude
#7e7e7e,medium,FORTALEZA,West,-38.51806640625,-3.7327083213358336
#7e7e7e,medium,CANINDÉ,West,-39.31062698364258,-4.355568691146405
#7e7e7e,medium,SANTA QUITÉRIA,West,-40.1605224609375,-4.3245014930191905
#7e7e7e,medium,SOBRAL,West,-40.352783203125,-3.683373343187846
#7e7e7e,medium,VILA DE JERICOACOARA,West,-40.4901123046875,-2.8168577330377342
#7e7e7e,medium,TIANGUÁ,West,-40.989990234375,-3.7217452310689536
#7e7e7e,medium,SÃO BENEDITO,West,-40.8746337890625,-4.045097324980062
#7e7e7e,medium,IPU,West,-40.704345703125,-4.3245014930191905
#7e7e7e,medium,ITAPIPOCA,West,-39.579963684082024,-3.500741893263085
#7e7e7e,medium,ARACATI,West,-37.77099609375,-4.565473550710278
#7e7e7e,medium,RUSSAS,West,-37.96875,-4.9486697400227
#7e7e7e,medium,QUIXERAMOBIM,West,-39.287109375,-5.167540507950538
#7e7e7e,medium,CRATEÚS,West,-40.67138671874999,-5.178482088522876
#7e7e7e,medium,MOMBAÇA,West,-39.627685546875,-5.725311447610142
#7e7e7e,medium,TAUÁ,West,-40.286865234375,-5.98760689165826
#7e7e7e,medium,PARAMBU,West,-40.693359375,-6.206090498573885
#7e7e7e,medium,AIUABA,West,-40.1220703125,-6.555474602201876
#7e7e7e,medium,ACOPIARA,West,-39.46289062499999,-6.0968598188879355
#7e7e7e,medium,ICÓ,West,-38.85864257812499,-6.369893945725818
#7e7e7e,medium,VÁRZEA ALEGRE,West,-39.298095703125,-6.7737162387535
#7e7e7e,medium,CRATO,West,-39.407958984375,-7.220799642710931
#7e7e7e,medium,MAURITI,West,-38.770751953125,-7.384257828309248
#7e7e7e,medium,CAMPOS SALES,West,-40.36376953125,-7.079088026071719
#7e7e7e,medium,JUAZEIRO DO NORTE,West,-39.320068359375,-7.215350011351342
#7e7e7e,medium,IGUATU,West,-39.2926025390625,-6.353515931008791
#7e7e7e,medium,JAGUARIBE,West,-38.6224365234375,-5.889260560133925
#7e7e7e,medium,ALTO SANTO,West,-38.2763671875,-5.512107462769789
#7e7e7e,,MORADA NOVA,West,-38.3697509765625,-5.101887070062321
#7e7e7e,medium,QUIXADÁ,West,-39.0179443359375,-4.970560127931995
#7e7e7e,medium,BOA VIAGEM,West,-39.737548828125,-5.10735844762961
#7e7e7e,medium,JAGUARUANA,West,-37.781982421875,-4.833733396156413
#7e7e7e,medium,BATURITÉ,West,-38.880615234375,-4.3245014930191905
#7e7e7e,,MARANGUAPE,West,-38.6883544921875,-3.897138029219278
#7e7e7e,medium,ACARAÚ,West,-40.111083984375,-2.8772079526533365
#7e7e7e,medium,GRANJA,West,-40.836181640625,-3.118576216781991
#7e7e7e,medium,VIÇOSA DO CEARÁ,West,-41.0888671875,-3.5627652904168543
#7e7e7e,medium,CAMOCIM,West,-40.8416748046875,-2.8991526985043006
#7e7e7e,medium,AMONTADA,West,-39.8309326171875,-3.3544053576029516
#7e7e7e,medium,ITAPAJÉ,West,-39.58374023437499,-3.6943369092926908
#7e7e7e,medium,CROATÁ,West,-40.902099609375,-4.4066598837670155
#7e7e7e,medium,CASCAVEL,West,-38.18847656249999,-4.182072606722732
#7e7e7e,medium,CAUCAIA,West,-38.660888671875,-3.7306527523230915
#7e7e7e,medium,MARACANAÚ,West,-38.62621307373047,-3.881381553343314
,,MONSENHOR TABOSA,West,-40.0726318359375,-4.789942967844043
,,REDENÇÃO,West,-38.7432861328125,-4.22863878796049
,,BARREIRA,West,-38.64166259765625,-4.286157851321014
,,OCARA,West,-38.59771728515624,-4.480594678760173
,,ITATIRA,West,-39.61944580078125,-4.510714125698484
,,LIMOEIRO DO NORTE,West,-38.0950927734375,-5.129243490429327
,,ICAPUÍ,West,-37.364501953125,-4.70235372255946
,,IRACEMA,West,-38.30932617187499,-5.801826969242172
,,PEREIRO,West,-38.4686279296875,-6.0476987312836785
,,ORÓS,West,-38.91632080078125,-6.2361249830392875
,,QUIXELÔ,West,-39.20745849609375,-6.249776453227819
,,LAVRAS DA MANGABEIRA,West,-38.9520263671875,-6.768261387680106
,,JUCÁS,West,-39.5233154296875,-6.525458832948283
,,ASSARÉ,West,-39.8748779296875,-6.871892962887516
,,CATARINA,West,-39.891357421875,-6.129631376647244
,,ARNEIROZ,West,-40.15228271484375,-6.315298538330033
,,QUITERANÓPOLIS,West,-40.69885253906249,-5.8373485122388935
,,SOLONOPOLE,West,-39.00421142578125,-5.7307771834078745
,,SENADOR POMPEU,West,-39.37774658203125,-5.591384711305773
,,PEDRA BRANCA,West,-39.65789794921874,-5.45195903158632
,,IDEPENDÊNCIA,West,-40.2923583984375,-5.389070137535627
,,NOVO ORIENTE,West,-40.76202392578125,-5.531244325359963
,,IPUEIRAS,West,-40.71258544921875,-4.54357027937176
,,PORANGA,West,-40.92132568359375,-4.746149734842909
,,GUARACIABA DO NORTE,West,-40.75653076171875,-4.14372190751926
,,COREAÚ,West,-40.6549072265625,-3.554541432370175
,,MASSPÊ,West,-40.33905029296875,-3.5189038690258543
,,BELA CRUZ,West,-40.1605224609375,-3.0417830279332505
,,TRAIRI,West,-39.27612304687499,-3.2721456350750127
,,ITAREMA,West,-39.9188232421875,-2.9101249120129014
,,PARACURU,West,-39.00146484375,-3.4119830550892636
,,BARROQUINHA,West,-41.143798828125,-3.0116127710462903
,,BARBALHA,West,-39.2926025390625,-7.307984780163877
,,SANTANA DO CARIRI,West,-39.75128173828125,-7.196275785130191
,,BREJO SANTO,West,-38.98223876953125,-7.487750181700039
,,MARTINÓPOLE,West,-40.702972412109375,-3.2186731837839866
,,URUOCA,West,-40.55877685546875,-3.313276350975303
,,MORAÚJO,West,-40.678253173828125,-3.4627034087109094
,,MARCO,West,-40.148162841796875,-3.119947473175678
,,MORRINHOS,West,-40.123443603515625,-3.228271011252635
,,SÃO GONÇALO DO AMARANTE,West,-38.9630126953125,-3.628553494845424
,,PENTECOSTE,West,-39.287109375,-3.7957434222874533
,,IRAUÇUBA,West,-39.79248046875,-3.7464119916730603
,,AQUIRAZ,West,-38.39996337890625,-3.9053586821389716
,,SANTANA DO ACARAÚ,West,-40.21270751953125,-3.4681865281649236
,,MIRAÍMA,West,-39.96826171875,-3.5627652904168543
,,JIJOCA DE JERICOACOARA,West,-40.461273193359375,-2.906010344442771
,,PACUJÁ,West,-40.69473266601562,-3.980710893919806
,,GRAÇA,West,-40.755157470703125,-4.047152127258027
,,IBIAPINA,West,-40.892486572265625,-3.921114708363267
,,FRECHEIRINHA,West,-40.82588195800781,-3.755319262354653
#7e7e7e,medium,UBAJARA,West,-40.91377258300781,-3.8526081005143284
#7e7e7e,medium,SÃO JOSÉ DO TORTO,West,-40.616455078125,-3.781355377813875
#7e7e7e,medium,MUCAMBO,West,-40.74554443359374,-3.903303526451104
#7e7e7e,medium,CARIRÉ,West,-40.47157287597656,-3.9485157850410473
#7e7e7e,medium,GROÍRAS,West,-40.38917541503906,-3.9122091647384383
#7e7e7e,medium,RERIUTABA,West,-40.57456970214844,-4.1389279389996405
#7e7e7e,medium,VARJOTA,West,-40.47294616699219,-4.195768831033331
#7e7e7e,medium,PIRES FERREIRA,West,-40.63224792480469,-4.245073244271891
#7e7e7e,medium,HIDROLÂNDIA,West,-40.41526794433594,-4.408029113837139
#7e7e7e,medium,NOVA RUSSAS,West,-40.5615234375,-4.7050910542706355
#7e7e7e,medium,TAMBORIL,West,-40.31639099121094,-4.830996577036115
#7e7e7e,medium,ASSENTAMENTO NOVA CANAÃ,West,-39.3145751953125,-5.358990533628934
#7e7e7e,medium,AURORA,West,-38.9630126953125,-6.940059334882694
#7e7e7e,medium,GRANJEIRO,West,-39.208831787109375,-6.885527022341312
#7e7e7e,medium,MISSÃO VELHA,West,-39.1387939453125,-7.249409128798532
#7e7e7e,medium,SÍTIO GAMALEIRA,West,-38.9630126953125,-7.279379022306316
#7e7e7e,medium,MILAGRES,West,-38.946533203125,-7.312071167657926
#7e7e7e,medium,NOVA OLINDA,West,-39.68124389648437,-7.092716048631412
#7e7e7e,medium,TARRAFAS,West,-39.75952148437499,-6.6809754212657575
#7e7e7e,medium,IBICATU,West,-39.49859619140625,-6.777807336581071
#7e7e7e,medium,FARIAS BRITO,West,-39.5672607421875,-6.926426847059551
#7e7e7e,medium,ALTANEIRA,West,-39.738922119140625,-6.990496101016948
#7e7e7e,medium,CEDRO,West,-39.07012939453125,-6.597766481039653
#7e7e7e,medium,POTENGI,West,-40.0286865234375,-7.089990476360545
#7e7e7e,medium,ARARRIPE,West,-40.12481689453125,-7.211262744763912
#7e7e7e,medium,PORTEIRAS,West,-39.115447998046875,-7.53131857976111
#7e7e7e,medium,JARDIM,West,-39.28985595703125,-7.584411640986814
#7e7e7e,medium,BARRO,West,-38.772125244140625,-7.167662943071209
#7e7e7e,medium,IPAUMIRIM,West,-38.725433349609375,-6.788716761000514
